[{ "metro" : "Chicago, IL", "active" : true, "country" : "US", "loc" : { "type" : "Point", "coordinates" : [ -87.6297982, 41.8781136 ] }, "shortname" : "chicago" },
{ "metro" : "Phoenix, AZ", "active" : true, "country" : "US", "loc" : { "type" : "Point", "coordinates" : [ -112.074037, 33.448377 ] }, "shortname" : "phoenix" },
{ "metro" : "Scottsdale, AZ", "active" : true, "country" : "US", "loc" : { "type" : "Point", "coordinates" : [ -111.926052, 33.494170 ] }, "shortname" : "scottsdale" },
{ "metro" : "Tempe, AZ", "active" : true, "country" : "US", "loc" : { "type" : "Point", "coordinates" : [ -111.940005, 33.425510 ] }, "shortname" : "tempe" },
{ "metro" : "Tucson, AZ", "active" : true, "country" : "US", "loc" : { "type" : "Point", "coordinates" : [ -110.926479, 32.221743 ] }, "shortname" : "tucson" },
{ "metro" : "Berkeley, CA", "active" : true, "country" : "US", "loc" : { "type" : "Point", "coordinates" : [ -122.272747, 37.871593 ] }, "shortname" : "berkeley" },
{ "metro" : "Emeryville, CA", "active" : true, "country" : "US", "loc" : { "type" : "Point", "coordinates" : [ -122.285247, 37.831316 ] }, "shortname" : "emeryville" },
{ "metro" : "Los Angeles, CA", "active" : true, "country" : "US", "loc" : { "type" : "Point", "coordinates" : [ -118.243685, 34.052234 ] }, "shortname" : "la" },
{ "metro" : "San Diego, CA", "active" : true, "country" : "US", "loc" : { "type" : "Point", "coordinates" : [ -117.161084, 32.715738 ] }, "shortname" : "sd" },
{ "metro" : "San Francisco, CA", "active" : true, "country" : "US", "loc" : { "type" : "Point", "coordinates" : [ -122.419416, 37.774929 ] }, "shortname" : "sf" },
{ "metro" : "Boulder, CO", "active" : true, "country" : "US", "loc" : { "type" : "Point", "coordinates" : [ -105.270546, 40.014986 ] }, "shortname" : "boulder" },   
{ "metro" : "Denver, CO", "active" : true, "country" : "US", "loc" : { "type" : "Point", "coordinates" : [ -104.990251, 39.739236 ] }, "shortname" : "denver" },
{ "metro" : "Hartford, CT", "active" : true, "country" : "US", "loc" : { "type" : "Point", "coordinates" : [ -72.685093, 41.763711 ] }, "shortname" : "hartford" },   
{ "metro" : "New Haven, CT", "active" : true, "country" : "US", "loc" : { "type" : "Point", "coordinates" : [ -72.927884, 41.308274 ] }, "shortname" : "newhaven" },
{ "metro" : "Washington, DC", "active" : true, "country" : "US", "loc" : { "type" : "Point", "coordinates" : [ -77.036871, 38.907192 ] }, "shortname" : "dc" },  
{ "metro" : "Fort Lauderdale, FL", "active" : true, "country" : "US", "loc" : { "type" : "Point", "coordinates" : [ -80.137317, 26.122439 ] }, "shortname" : "fortlauderdale" },
{ "metro" : "Orlando, FL", "active" : true, "country" : "US", "loc" : { "type" : "Point", "coordinates" : [ -81.379236, 28.538335 ] }, "shortname" : "orlando" },  
{ "metro" : "Miami, FL", "active" : true, "country" : "US", "loc" : { "type" : "Point", "coordinates" : [ -80.226439, 25.788969 ] }, "shortname" : "miami" },
{ "metro" : "Tampa, FL", "active" : true, "country" : "US", "loc" : { "type" : "Point", "coordinates" : [ -82.457178, 27.950575 ] }, "shortname" : "tampa" },
{ "metro" : "Atlanta, GA", "active" : true, "country" : "US", "loc" : { "type" : "Point", "coordinates" : [ -84.387982, 33.748995 ] }, "shortname" : "atlanta" },
{ "metro" : "Savannah, GA", "active" : true, "country" : "US", "loc" : { "type" : "Point", "coordinates" : [ -81.099834, 32.083541 ] }, "shortname" : "savannah" },  
{ "metro" : "Honolulu, HI", "active" : true, "country" : "US", "loc" : { "type" : "Point", "coordinates" : [ -157.858333, 21.306944 ] }, "shortname" : "honolulu" },
{ "metro" : "Lahaina, GA", "active" : true, "country" : "US", "loc" : { "type" : "Point", "coordinates" : [ -156.682500, 20.878333 ] }, "shortname" : "lahaina" },  
{ "metro" : "Iowa City, IA", "active" : true, "country" : "US", "loc" : { "type" : "Point", "coordinates" : [ -91.530168, 41.661128 ] }, "shortname" : "iowacity" },
{ "metro" : "Boise, ID", "active" : true, "country" : "US", "loc" : { "type" : "Point", "coordinates" : [ -116.214607, 43.618710 ] }, "shortname" : "boise" },  
{ "metro" : "Evanston, IL", "active" : true, "country" : "US", "loc" : { "type" : "Point", "coordinates" : [ -87.687697, 42.045072 ] }, "shortname" : "evanston" },
{ "metro" : "Naperville, IL", "active" : true, "country" : "US", "loc" : { "type" : "Point", "coordinates" : [ -88.153535, 41.750839 ] }, "shortname" : "naperville" },  
{ "metro" : "Schaumburg, IL", "active" : true, "country" : "US", "loc" : { "type" : "Point", "coordinates" : [ -88.083406, 42.033361 ] }, "shortname" : "schaumburg" },
{ "metro" : "Skokie, IL", "active" : true, "country" : "US", "loc" : { "type" : "Point", "coordinates" : [ -87.741625, 42.032403 ] }, "shortname" : "skokie" },  
{ "metro" : "Bloomington, IN", "active" : true, "country" : "US", "loc" : { "type" : "Point", "coordinates" : [ -86.526386, 39.165325 ] }, "shortname" : "bloomington" },
{ "metro" : "Indianapolis, IN", "active" : true, "country" : "US", "loc" : { "type" : "Point", "coordinates" : [ -86.158068, 39.768403 ] }, "shortname" : "indianapolis" },  
{ "metro" : "Louisville, KY", "active" : true, "country" : "US", "loc" : { "type" : "Point", "coordinates" : [ -85.758456, 38.252665 ] }, "shortname" : "louisville" },
{ "metro" : "New Orleans, LA", "active" : true, "country" : "US", "loc" : { "type" : "Point", "coordinates" : [ -90.071532, 29.951066 ] }, "shortname" : "neworleans" },  
{ "metro" : "Boston, MA", "active" : true, "country" : "US", "loc" : { "type" : "Point", "coordinates" : [ -71.058880, 42.360082 ] }, "shortname" : "boston" },
{ "metro" : "Cambridge, MA", "active" : true, "country" : "US", "loc" : { "type" : "Point", "coordinates" : [ -71.109734, 42.373616 ] }, "shortname" : "cambridge" },
{ "metro" : "Baltimore, MD", "active" : true, "country" : "US", "loc" : { "type" : "Point", "coordinates" : [ -76.612189, 39.290385 ] }, "shortname" : "baltimore" },
{ "metro" : "Ann Arbor, MI", "active" : true, "country" : "US", "loc" : { "type" : "Point", "coordinates" : [ -83.743038, 42.280826 ] }, "shortname" : "annarbor" },  
{ "metro" : "Detroit, MI", "active" : true, "country" : "US", "loc" : { "type" : "Point", "coordinates" : [ -83.045754, 42.331427 ] }, "shortname" : "detroit" },
{ "metro" : "Minneapolis, MN", "active" : true, "country" : "US", "loc" : { "type" : "Point", "coordinates" : [ -93.265011, 44.977753 ] }, "shortname" : "minneapolis" },
{ "metro" : "St Paul, MN", "active" : true, "country" : "US", "loc" : { "type" : "Point", "coordinates" : [ -93.089958, 44.953703 ] }, "shortname" : "stpaul" },  
{ "metro" : "Kansas City, MO", "active" : true, "country" : "US", "loc" : { "type" : "Point", "coordinates" : [ -94.578567, 39.099727 ] }, "shortname" : "kc" },
{ "metro" : "St Louis, MO", "active" : true, "country" : "US", "loc" : { "type" : "Point", "coordinates" : [ -90.199404, 38.627003 ] }, "shortname" : "stl" },
{ "metro" : "Charlotte, NC", "active" : true, "country" : "US", "loc" : { "type" : "Point", "coordinates" : [ -80.843124, 35.227085 ] }, "shortname" : "charlotte" },  
{ "metro" : "Durham, NC", "active" : true, "country" : "US", "loc" : { "type" : "Point", "coordinates" : [ -78.898619, 35.994033 ] }, "shortname" : "durham" },
{ "metro" : "Raleigh, NC", "active" : true, "country" : "US", "loc" : { "type" : "Point", "coordinates" : [ -78.638179, 35.779590 ] }, "shortname" : "raleigh" },
{ "metro" : "Newark, NJ", "active" : true, "country" : "US", "loc" : { "type" : "Point", "coordinates" : [ -74.172367, 40.735657 ] }, "shortname" : "newark" },
{ "metro" : "Princeton, NJ", "active" : true, "country" : "US", "loc" : { "type" : "Point", "coordinates" : [ -74.667223, 40.357298 ] }, "shortname" : "princeton" },
{ "metro" : "Albuquerque, NM", "active" : true, "country" : "US", "loc" : { "type" : "Point", "coordinates" : [ -106.605553, 35.085334 ] }, "shortname" : "albuquerque" },
{ "metro" : "Sante Fe, NM", "active" : true, "country" : "US", "loc" : { "type" : "Point", "coordinates" : [ -105.937799, 35.686975 ] }, "shortname" : "santafe" },
{ "metro" : "Las Vegas, NV", "active" : true, "country" : "US", "loc" : { "type" : "Point", "coordinates" : [ -115.139830, 36.169941 ] }, "shortname" : "lasvegas" },
{ "metro" : "Reno, NV", "active" : true, "country" : "US", "loc" : { "type" : "Point", "coordinates" : [ -119.813803, 39.529633 ] }, "shortname" : "reno" },
{ "metro" : "New York, NY", "active" : true, "country" : "US", "loc" : { "type" : "Point", "coordinates" : [ -74.005941, 40.712784 ] }, "shortname" : "nyc" },
{ "metro" : "Brooklyn, NY", "active" : true, "country" : "US", "loc" : { "type" : "Point", "coordinates" : [ -73.944158, 40.678178 ] }, "shortname" : "brooklyn" },
{ "metro" : "Flushing, NY", "active" : true, "country" : "US", "loc" : { "type" : "Point", "coordinates" : [ -73.833079, 40.767499 ] }, "shortname" : "queens" },
{ "metro" : "Long Island City, NY", "active" : true, "country" : "US", "loc" : { "type" : "Point", "coordinates" : [ -73.948542, 40.744679 ] }, "shortname" : "longisland" },
{ "metro" : "Cincinnati, OH", "active" : true, "country" : "US", "loc" : { "type" : "Point", "coordinates" : [ -84.512020, 39.103118 ] }, "shortname" : "cincinnati" },
{ "metro" : "Cleveland, OH", "active" : true, "country" : "US", "loc" : { "type" : "Point", "coordinates" : [ -81.694361, 41.499320 ] }, "shortname" : "cleveland" },
{ "metro" : "Columbus, OH", "active" : true, "country" : "US", "loc" : { "type" : "Point", "coordinates" : [ -82.998794, 39.961176 ] }, "shortname" : "columbus" },
{ "metro" : "Portland, OR", "active" : true, "country" : "US", "loc" : { "type" : "Point", "coordinates" : [ -122.676482, 45.523062 ] }, "shortname" : "portland" },
{ "metro" : "Salem, OR", "active" : true, "country" : "US", "loc" : { "type" : "Point", "coordinates" : [ -123.035096, 44.942898 ] }, "shortname" : "salem" },
{ "metro" : "Philadelphia, PA", "active" : true, "country" : "US", "loc" : { "type" : "Point", "coordinates" : [ -75.165222, 39.952584 ] }, "shortname" : "philadelphia" },
{ "metro" : "Pittsburgh, PA", "active" : true, "country" : "US", "loc" : { "type" : "Point", "coordinates" : [ -79.995886, 40.440625 ] }, "shortname" : "pittsburgh" },
{ "metro" : "Providence, RI", "active" : true, "country" : "US", "loc" : { "type" : "Point", "coordinates" : [ -71.412834, 41.823989 ] }, "shortname" : "providence" },
{ "metro" : "Charleston, SC", "active" : true, "country" : "US", "loc" : { "type" : "Point", "coordinates" : [ -79.931051, 32.776475 ] }, "shortname" : "charleston" },
{ "metro" : "Memphis, TN", "active" : true, "country" : "US", "loc" : { "type" : "Point", "coordinates" : [ -90.048980, 35.149534 ] }, "shortname" : "memphis" },
{ "metro" : "Nashville, TN", "active" : true, "country" : "US", "loc" : { "type" : "Point", "coordinates" : [ -86.781602, 36.162664 ] }, "shortname" : "nashville" },
{ "metro" : "Austin, TX", "active" : true, "country" : "US", "loc" : { "type" : "Point", "coordinates" : [ -97.743061, 30.267153 ] }, "shortname" : "austin" },
{ "metro" : "Dallas, TX", "active" : true, "country" : "US", "loc" : { "type" : "Point", "coordinates" : [ -96.796988, 32.776664 ] }, "shortname" : "dallas" },
{ "metro" : "Houston, TX", "active" : true, "country" : "US", "loc" : { "type" : "Point", "coordinates" : [ -95.369803, 29.760427 ] }, "shortname" : "houston" },
{ "metro" : "San Antonio, TX", "active" : true, "country" : "US", "loc" : { "type" : "Point", "coordinates" : [ -98.493628, 29.424122 ] }, "shortname" : "sanantonio" },
{ "metro" : "Salt Lake City, UT", "active" : true, "country" : "US", "loc" : { "type" : "Point", "coordinates" : [ -111.891047, 40.760779 ] }, "shortname" : "saltlakecity" },
{ "metro" : "Alexandria, VA", "active" : true, "country" : "US", "loc" : { "type" : "Point", "coordinates" : [ -77.046921, 38.804836 ] }, "shortname" : "alexandria" },
{ "metro" : "Arlington, VA", "active" : true, "country" : "US", "loc" : { "type" : "Point", "coordinates" : [ -77.106770, 38.879970 ] }, "shortname" : "arlington" },
{ "metro" : "Richmond, VA", "active" : true, "country" : "US", "loc" : { "type" : "Point", "coordinates" : [ -77.436048, 37.540725 ] }, "shortname" : "richmond" },
{ "metro" : "Burlington, VT", "active" : true, "country" : "US", "loc" : { "type" : "Point", "coordinates" : [ -73.212072, 44.475882 ] }, "shortname" : "burlington" },
{ "metro" : "Bellevue, VT", "active" : true, "country" : "US", "loc" : { "type" : "Point", "coordinates" : [ -122.201516, 47.610150 ] }, "shortname" : "bellevue" },
{ "metro" : "Redmond, WA", "active" : true, "country" : "US", "loc" : { "type" : "Point", "coordinates" : [ -122.121512, 47.673988 ] }, "shortname" : "redmond" },
{ "metro" : "Seattle, WA", "active" : true, "country" : "US", "loc" : { "type" : "Point", "coordinates" : [ -122.332071, 47.606209 ] }, "shortname" : "seattle" },
{ "metro" : "Madison, WI", "active" : true, "country" : "US", "loc" : { "type" : "Point", "coordinates" : [ -89.401230, 43.073052 ] }, "shortname" : "madison" },
{ "metro" : "Milwaukee, WI", "active" : true, "country" : "US", "loc" : { "type" : "Point", "coordinates" : [ -87.906474, 43.038902 ] }, "shortname" : "milwaukee" }]
